[
  {
    "station": "仲御徒町",
    "lines": [{ "name": "2号線日比谷線", "depth": -8.6 }],
    "coordinates": [139.77626, 35.7074]
  },
  {
    "station": "入谷",
    "lines": [{ "name": "2号線日比谷線", "depth": -8.2 }],
    "coordinates": [139.78504, 35.72131]
  },
  {
    "station": "南千住",
    "lines": [{ "name": "2号線日比谷線", "depth": 9 }],
    "coordinates": [139.79924, 35.73288]
  },
  {
    "station": "上野",
    "lines": [
      { "name": "2号線日比谷線", "depth": -12.7 },
      { "name": "3号線銀座線", "depth": -10.1 }
    ],
    "coordinates": [139.77764, 35.71199]
  },
  {
    "station": "三ノ輪",
    "lines": [{ "name": "2号線日比谷線", "depth": -9.8 }],
    "coordinates": [139.79182, 35.7299]
  },
  {
    "station": "秋葉原",
    "lines": [{ "name": "2号線日比谷線", "depth": -11.4 }],
    "coordinates": [139.7755, 35.69719]
  },
  {
    "station": "北千住",
    "lines": [
      { "name": "2号線日比谷線", "depth": 15.4 },
      { "name": "9号線千代田線", "depth": -11.3 }
    ],
    "coordinates": [139.80518, 35.74855]
  },
  {
    "station": "神谷町",
    "lines": [{ "name": "2号線日比谷線", "depth": -10.3 }],
    "coordinates": [139.74419, 35.66206]
  },
  {
    "station": "銀座",
    "lines": [
      { "name": "2号線日比谷線", "depth": -14.8 },
      { "name": "3号線銀座線", "depth": -9.3 },
      { "name": "4号線丸ノ内線", "depth": -10.3 }
    ],
    "coordinates": [139.76464, 35.67155]
  },
  {
    "station": "広尾",
    "lines": [{ "name": "2号線日比谷線", "depth": -9 }],
    "coordinates": [139.72226, 35.6506]
  },
  {
    "station": "東銀座",
    "lines": [{ "name": "2号線日比谷線", "depth": -14.3 }],
    "coordinates": [139.76691, 35.66977]
  },
  {
    "station": "霞ケ関",
    "lines": [
      { "name": "2号線日比谷線", "depth": -15.4 },
      { "name": "4号線丸ノ内線", "depth": -11.3 },
      { "name": "9号線千代田線", "depth": -8.2 }
    ],
    "coordinates": [139.75144, 35.67452]
  },
  {
    "station": "人形町",
    "lines": [{ "name": "2号線日比谷線", "depth": -9.4 }],
    "coordinates": [139.78179, 35.6869]
  },
  {
    "station": "茅場町",
    "lines": [
      { "name": "2号線日比谷線", "depth": -7.5 },
      { "name": "5号線東西線", "depth": -11.4 }
    ],
    "coordinates": [139.78005, 35.67976]
  },
  {
    "station": "六本木",
    "lines": [{ "name": "2号線日比谷線", "depth": -10.8 }],
    "coordinates": [139.73025, 35.66235]
  },
  {
    "station": "小伝馬町",
    "lines": [{ "name": "2号線日比谷線", "depth": -8.7 }],
    "coordinates": [139.77817, 35.69112]
  },
  {
    "station": "八丁堀",
    "lines": [{ "name": "2号線日比谷線", "depth": -11.2 }],
    "coordinates": [139.77775, 35.67606]
  },
  {
    "station": "築地",
    "lines": [{ "name": "2号線日比谷線", "depth": -9.2 }],
    "coordinates": [139.77326, 35.66854]
  },
  {
    "station": "日比谷",
    "lines": [
      { "name": "2号線日比谷線", "depth": -17.8 },
      { "name": "9号線千代田線", "depth": -14.4 }
    ],
    "coordinates": [139.75989, 35.67476]
  },
  {
    "station": "恵比寿",
    "lines": [{ "name": "2号線日比谷線", "depth": -10.2 }],
    "coordinates": [139.70808, 35.64646]
  },
  {
    "station": "中目黒",
    "lines": [{ "name": "2号線日比谷線", "depth": 6.2 }],
    "coordinates": [139.69815, 35.64352]
  },
  {
    "station": "浅草",
    "lines": [{ "name": "3号線銀座線", "depth": -8.8 }],
    "coordinates": [139.79803, 35.71107]
  },
  {
    "station": "末広町",
    "lines": [{ "name": "3号線銀座線", "depth": -7.4 }],
    "coordinates": [139.77181, 35.70319]
  },
  {
    "station": "稲荷町",
    "lines": [{ "name": "3号線銀座線", "depth": -6.8 }],
    "coordinates": [139.78291, 35.71126]
  },
  {
    "station": "田原町",
    "lines": [{ "name": "3号線銀座線", "depth": -7.7 }],
    "coordinates": [139.79081, 35.70981]
  },
  {
    "station": "上野広小路",
    "lines": [{ "name": "3号線銀座線", "depth": -8 }],
    "coordinates": [139.77315, 35.70838]
  },
  {
    "station": "虎ノ門",
    "lines": [{ "name": "3号線銀座線", "depth": -8.5 }],
    "coordinates": [139.75056, 35.67]
  },
  {
    "station": "外苑前",
    "lines": [{ "name": "3号線銀座線", "depth": -9.5 }],
    "coordinates": [139.71725, 35.67016]
  },
  {
    "station": "日本橋",
    "lines": [
      { "name": "3号線銀座線", "depth": -10.5 },
      { "name": "5号線東西線", "depth": -15.3 }
    ],
    "coordinates": [139.77313, 35.68156]
  },
  {
    "station": "溜池山王",
    "lines": [
      { "name": "3号線銀座線", "depth": -9.4 },
      { "name": "7号線南北線", "depth": -16.2 }
    ],
    "coordinates": [139.74139, 35.67187]
  },
  {
   "station": "青山一丁目",
    "lines": [
      { "name": "3号線銀座線", "depth": -7.7 },
      { "name": "11号線半蔵門線", "depth": -14.6 }
    ],
    "coordinates": [139.72318, 35.67247]
  },
  {
    "station": "京橋",
    "lines": [
      { "name": "3号線銀座線", "depth": -10.3 },
      { "name": "4号線丸ノ内線", "depth": -10.3 }
    ],
    "coordinates": [139.7698, 35.67619]
  },
  {
    "station": "新橋",
    "lines": [{ "name": "3号線銀座線", "depth": -10 }],
    "coordinates": [139.75935, 35.66709]
  },
  {
    "station": "神田",
    "lines": [{ "name": "3号線銀座線", "depth": -8 }],
    "coordinates": [139.77107, 35.69329]
  },
  {
    "station": "赤坂見附",
    "lines": [
      { "name": "3号線銀座線", "depth": -6.9 },
      { "name": "4号線丸ノ内線", "depth": -6.7 }
    ],
    "coordinates": [139.73773, 35.67621]
  },
  {
    "station": "三越前",
    "lines": [
      { "name": "3号線銀座線", "depth": -9.8 },
      { "name": "11号線半蔵門線", "depth": -27.8 }
    ],
    "coordinates": [139.77378, 35.68671]
  },
  {
    "station": "表参道",
    "lines": [
      { "name": "3号線銀座線", "depth": -8.1 },
      { "name": "9号線千代田線", "depth": -18.8 },
      { "name": "11号線半蔵門線", "depth": -8.5 }
    ],
    "coordinates": [139.7118, 35.66431]
  },
  {
    "station": "渋谷",
    "lines": [
      { "name": "3号線銀座線", "depth": 12.1 },
      { "name": "11号線半蔵門線", "depth": -14.9 },
      { "name": "13号線副都心線", "depth": -29 }
    ],
    "coordinates": [139.701968, 35.658869]
  },
  {
    "station": "後楽園",
    "lines": [
      { "name": "4号線丸ノ内線", "depth": -3.5 },
      { "name": "7号線南北線", "depth": -37.5 }
    ],
    "coordinates": [139.75164, 35.70734]
  },
  {
    "station": "御茶ノ水",
    "lines": [{ "name": "4号線丸ノ内線", "depth": -7.6 }],
    "coordinates": [139.76355, 35.70069]
  },
  {
    "station": "本郷三丁目",
    "lines": [{ "name": "4号線丸ノ内線", "depth": -6.3 }],
    "coordinates": [139.7595, 35.70728]
  },
  {
    "station": "新高円寺",
    "lines": [{ "name": "4号線丸ノ内線", "depth": -7.7 }],
    "coordinates": [139.64926, 35.69788]
  },
  {
    "station": "南阿佐ヶ谷",
    "lines": [{ "name": "4号線丸ノ内線", "depth": -7.7 }],
    "coordinates": [139.63624, 35.69918]
  },
  {
    "station": "荻窪",
    "lines": [{ "name": "4号線丸ノ内線", "depth": -10.7 }],
    "coordinates": [139.62077, 35.70419]
  },
  {
    "station": "茗荷谷",
    "lines": [{ "name": "4号線丸ノ内線", "depth": -5.9 }],
    "coordinates": [139.73649, 35.71758]
  },
  {
    "station": "新中野",
    "lines": [{ "name": "4号線丸ノ内線", "depth": -7.3 }],
    "coordinates": [139.67029, 35.6975]
  },
  {
    "station": "東高円寺",
    "lines": [{ "name": "4号線丸ノ内線", "depth": -6.4 }],
    "coordinates": [139.659, 35.69787]
  },
  {
    "station": "池袋",
    "lines": [
      { "name": "4号線丸ノ内線", "depth": -8.7 },
      { "name": "8号線有楽町線", "depth": -12.2 },
      { "name": "13号線副都心線", "depth": -25 }
    ],
    "coordinates": [139.71034, 35.73061]
  },
  {
    "station": "新大塚",
    "lines": [{ "name": "4号線丸ノ内線", "depth": -6.8 }],
    "coordinates": [139.7288, 35.72652]
  },
  {
    "station": "中野坂上",
    "lines": [
      { "name": "4号線丸ノ内線", "depth": -9.8 },
      { "name": "4号線丸ノ内線分岐線", "depth": -9.8 }
    ],
    "coordinates": [139.68284, 35.69701]
  },
  {
    "station": "東京",
    "lines": [{ "name": "4号線丸ノ内線", "depth": -10.3 }],
    "coordinates": [139.768, 35.68273]
  },
  {
    "station": "国会議事堂前",
    "lines": [
      { "name": "4号線丸ノ内線", "depth": -11.2 },
      { "name": "9号線千代田線", "depth": -37.9 }
    ],
    "coordinates": [139.74455, 35.67429]
  },
  {
    "station": "淡路町",
    "lines": [{ "name": "4号線丸ノ内線", "depth": -8.1 }],
    "coordinates": [139.76746, 35.69535]
  },
  {
    "station": "四谷三丁目",
    "lines": [{ "name": "4号線丸ノ内線", "depth": -7.5 }],
    "coordinates": [139.72037, 35.68793]
  },
  {
    "station": "四ツ谷",
    "lines": [
      { "name": "4号線丸ノ内線", "depth": -5.5 },
      { "name": "7号線南北線", "depth": -21.2 }
    ],
    "coordinates": [139.73009, 35.68326]
  },
  {
    "station": "大手町",
    "lines": [
      { "name": "4号線丸ノ内線", "depth": -10.2 },
      { "name": "5号線東西線", "depth": -19.1 },
      { "name": "9号線千代田線", "depth": -14.1 },
      { "name": "11号線半蔵門線", "depth": -27.1 }
    ],
    "coordinates": [139.76633, 35.68736]
  },
  {
    "station": "西新宿",
    "lines": [{ "name": "4号線丸ノ内線", "depth": -10 }],
    "coordinates": [139.6932, 35.69428]
  },
  {
    "station": "新宿三丁目",
    "lines": [
      { "name": "4号線丸ノ内線", "depth": -11 },
      { "name": "13号線副都心線", "depth": -15 }
    ],
    "coordinates": [139.70489, 35.69087]
  },
  {
    "station": "新宿御苑前",
    "lines": [{ "name": "4号線丸ノ内線", "depth": -7.6 }],
    "coordinates": [139.71185, 35.68834]
  },
  {
    "station": "新宿",
    "lines": [{ "name": "4号線丸ノ内線", "depth": -11.2 }],
    "coordinates": [139.7013, 35.69235]
  },
  {
    "station": "中野新橋",
    "lines": [{ "name": "4号線丸ノ内線分岐線", "depth": -8.2 }],
    "coordinates": [139.67448, 35.69207]
  },
  {
    "station": "方南町",
    "lines": [{ "name": "4号線丸ノ内線分岐線", "depth": -10.3 }],
    "coordinates": [139.65867, 35.68367]
  },
  {
    "station": "中野富士見町",
    "lines": [{ "name": "4号線丸ノ内線分岐線", "depth": -7 }],
    "coordinates": [139.6689, 35.69089]
  },
  {
    "station": "原木中山",
    "lines": [{ "name": "5号線東西線", "depth": 6.7 }],
    "coordinates": [139.94123, 35.70264]
  },
  {
    "station": "妙典",
    "lines": [{ "name": "5号線東西線", "depth": 7.4 }],
    "coordinates": [139.92343, 35.69029]
  },
  {
    "station": "飯田橋",
    "lines": [
      { "name": "5号線東西線", "depth": -11.4 },
      { "name": "7号線南北線", "depth": -20.3 },
      { "name": "8号線有楽町線", "depth": -19.1 }
    ],
    "coordinates": [139.74579, 35.70182]
  },
  {
    "station": "中野",
    "lines": [{ "name": "5号線東西線", "depth": 0.7 }],
    "coordinates": [139.66688, 35.70579]
  },
  {
    "station": "落合",
    "lines": [{ "name": "5号線東西線", "depth": -12.6 }],
    "coordinates": [139.68706, 35.7109]
  },
  {
    "station": "神楽坂",
    "lines": [{ "name": "5号線東西線", "depth": -17.5 }],
    "coordinates": [139.73566, 35.70367]
  },
  {
    "station": "高田馬場",
    "lines": [{ "name": "5号線東西線", "depth": -12.9 }],
    "coordinates": [139.70603, 35.7128]
  },
  {
    "station": "早稲田",
    "lines": [{ "name": "5号線東西線", "depth": -10.8 }],
    "coordinates": [139.72333, 35.70558]
  },
  {
    "station": "門前仲町",
    "lines": [{ "name": "5号線東西線", "depth": -10.9 }],
    "coordinates": [139.7971, 35.67146]
  },
  {
    "station": "木場",
    "lines": [{ "name": "5号線東西線", "depth": -22.4 }],
    "coordinates": [139.80591, 35.66938]
  },
  {
    "station": "浦安",
    "lines": [{ "name": "5号線東西線", "depth": 8.6 }],
    "coordinates": [139.89427, 35.66642]
  },
  {
    "station": "九段下",
    "lines": [
      { "name": "5号線東西線", "depth": -11.1 },
      { "name": "11号線半蔵門線", "depth": -21.9 }
    ],
    "coordinates": [139.75101, 35.69698]
  },
  {
    "station": "竹橋",
    "lines": [{ "name": "5号線東西線", "depth": -18.4 }],
    "coordinates": [139.75852, 35.69028]
  },
  {
    "station": "葛西",
    "lines": [{ "name": "5号線東西線", "depth": 9 }],
    "coordinates": [139.87396, 35.66354]
  },
  {
    "station": "南砂町",
    "lines": [{ "name": "5号線東西線", "depth": -6.2 }],
    "coordinates": [139.83048, 35.66881]
  },
  {
    "station": "行徳",
    "lines": [{ "name": "5号線東西線", "depth": 7.4 }],
    "coordinates": [139.91336, 35.68194]
  },
  {
    "station": "南行徳",
    "lines": [{ "name": "5号線東西線", "depth": 7.7 }],
    "coordinates": [139.90306, 35.67339]
  },
  {
    "station": "西葛西",
    "lines": [{ "name": "5号線東西線", "depth": 10 }],
    "coordinates": [139.85786, 35.66471]
  },
  {
    "station": "東陽町",
    "lines": [{ "name": "5号線東西線", "depth": -10.9 }],
    "coordinates": [139.81892, 35.66966]
  },
  {
    "station": "西船橋",
    "lines": [{ "name": "5号線東西線", "depth": 0.9 }],
    "coordinates": [139.95979, 35.70671]
  },
  {
    "station": "本駒込",
    "lines": [{ "name": "7号線南北線", "depth": -19.4 }],
    "coordinates": [139.75366, 35.72517]
  },
  {
    "station": "西ヶ原",
    "lines": [{ "name": "7号線南北線", "depth": -14.1 }],
    "coordinates": [139.74263, 35.74557]
  },
  {
    "station": "駒込",
    "lines": [{ "name": "7号線南北線", "depth": -16.9 }],
    "coordinates": [139.7466, 35.73648]
  },
  {
    "station": "東大前",
    "lines": [{ "name": "7号線南北線", "depth": -21.9 }],
    "coordinates": [139.7574, 35.71893]
  },
  {
    "station": "王子",
    "lines": [{ "name": "7号線南北線", "depth": -17.5 }],
    "coordinates": [139.73779, 35.75355]
  },
  {
    "station": "志茂",
    "lines": [{ "name": "7号線南北線", "depth": -16.4 }],
    "coordinates": [139.73303, 35.77728]
  },
  {
    "station": "王子神谷",
    "lines": [{ "name": "7号線南北線", "depth": -20.2 }],
    "coordinates": [139.73597, 35.76418]
  },
  {
    "station": "赤羽岩淵",
    "lines": [{ "name": "7号線南北線", "depth": -18 }],
    "coordinates": [139.72346, 35.7831]
  },
  {
    "station": "永田町",
    "lines": [
      { "name": "7号線南北線", "depth": -26.7 },
      { "name": "8号線有楽町線", "depth": -23.7 },
      { "name": "11号線半蔵門線", "depth": -36 }
    ],
    "coordinates": [139.73822, 35.67878]
  },
  {
    "station": "麻布十番",
    "lines": [{ "name": "7号線南北線", "depth": -24.3 }],
    "coordinates": [139.73715, 35.65554]
  },
  {
    "station": "市ケ谷",
    "lines": [
      { "name": "7号線南北線", "depth": -20.5 },
      { "name": "8号線有楽町線", "depth": -8.9 }
    ],
    "coordinates": [139.73766, 35.69417]
  },
  {
    "station": "六本木一丁目",
    "lines": [{ "name": "7号線南北線", "depth": -22.3 }],
    "coordinates": [139.73902, 35.66579]
  },
  {
    "station": "白金高輪",
    "lines": [{ "name": "7号線南北線", "depth": -29.8 }],
    "coordinates": [139.73469, 35.64385]
  },
  {
    "station": "白金台",
    "lines": [{ "name": "7号線南北線", "depth": -28.3 }],
    "coordinates": [139.72671, 35.63814]
  },
  {
    "station": "目黒",
    "lines": [{ "name": "7号線南北線", "depth": -19.8 }],
    "coordinates": [139.71542, 35.6332]
  },
  {
    "station": "千川",
    "lines": [
      { "name": "8号線有楽町線", "depth": -12.3 },
      { "name": "13号線副都心線", "depth": -19 }
    ],
    "coordinates": [139.68851, 35.73884]
  },
  {
    "station": "地下鉄成増",
    "lines": [
      { "name": "8号線有楽町線", "depth": -16.1 },
      { "name": "13号線副都心線", "depth": -16.1 }
    ],
    "coordinates": [139.63258, 35.776]
  },
  {
    "station": "東池袋",
    "lines": [{ "name": "8号線有楽町線", "depth": -13.8 }],
    "coordinates": [139.71787, 35.72659]
  },
  {
    "station": "江戸川橋",
    "lines": [{ "name": "8号線有楽町線", "depth": -16 }],
    "coordinates": [139.73315, 35.70964]
  },
  {
    "station": "平和台",
    "lines": [
      { "name": "8号線有楽町線", "depth": -17.7 },
      { "name": "13号線副都心線", "depth": -17.7 }
    ],
    "coordinates": [139.65526, 35.75697]
  },
  {
    "station": "小竹向原",
    "lines": [
      { "name": "8号線有楽町線", "depth": -17.3 },
      { "name": "13号線副都心線", "depth": -17.3 }
    ],
    "coordinates": [139.6785, 35.74388]
  },
  {
    "station": "氷川台",
    "lines": [
      { "name": "8号線有楽町線", "depth": -17.7 },
      { "name": "13号線副都心線", "depth": -17.7 }
    ],
    "coordinates": [139.6645, 35.75005]
  },
  {
    "station": "護国寺",
    "lines": [{ "name": "8号線有楽町線", "depth": -16.7 }],
    "coordinates": [139.72705, 35.72003]
  },
  {
    "station": "要町",
    "lines": [
      { "name": "8号線有楽町線", "depth": -16.1 },
      { "name": "13号線副都心線", "depth": -22 }
    ],
    "coordinates": [139.69736, 35.73342]
  },
  {
    "station": "地下鉄赤塚",
    "lines": [
      { "name": "8号線有楽町線", "depth": -15.2 },
      { "name": "13号線副都心線", "depth": -15.2 }
    ],
    "coordinates": [139.64552, 35.76909]
  },
  {
    "station": "和光市",
    "lines": [
      { "name": "8号線有楽町線", "depth": 1.7 },
      { "name": "13号線副都心線", "depth": 1.7 }
    ],
    "coordinates": [139.61182, 35.78877]
  },
  {
    "station": "新富町",
    "lines": [{ "name": "8号線有楽町線", "depth": -21 }],
    "coordinates": [139.77451, 35.67016]
  },
  {
    "station": "麹町",
    "lines": [{ "name": "8号線有楽町線", "depth": -10.5 }],
    "coordinates": [139.73699, 35.6856]
  },
  {
    "station": "豊洲",
    "lines": [{ "name": "8号線有楽町線", "depth": -19 }],
    "coordinates": [139.79672, 35.65438]
  },
  {
    "station": "有楽町",
    "lines": [{ "name": "8号線有楽町線", "depth": -19.4 }],
    "coordinates": [139.76108, 35.67623]
  },
  {
    "station": "月島",
    "lines": [{ "name": "8号線有楽町線", "depth": -22.5 }],
    "coordinates": [139.78386, 35.66522]
  },
  {
    "station": "桜田門",
    "lines": [{ "name": "8号線有楽町線", "depth": -17.1 }],
    "coordinates": [139.75296, 35.67772]
  },
  {
    "station": "銀座一丁目",
    "lines": [{ "name": "8号線有楽町線", "depth": -17.7 }],
    "coordinates": [139.76591, 35.67508]
  },
  {
    "station": "辰巳",
    "lines": [{ "name": "8号線有楽町線", "depth": -21.9 }],
    "coordinates": [139.81103, 35.64531]
  },
  {
    "station": "新木場",
    "lines": [{ "name": "8号線有楽町線", "depth": 7.8 }],
    "coordinates": [139.82535, 35.64564]
  },
  {
    "station": "西日暮里",
    "lines": [{ "name": "9号線千代田線", "depth": -9.4 }],
    "coordinates": [139.76785, 35.73281]
  },
  {
    "station": "千駄木",
    "lines": [{ "name": "9号線千代田線", "depth": -9.6 }],
    "coordinates": [139.76356, 35.7266]
  },
  {
    "station": "新御茶ノ水",
    "lines": [{ "name": "9号線千代田線", "depth": -24.3 }],
    "coordinates": [139.76576, 35.69759]
  },
  {
    "station": "北綾瀬",
    "lines": [{ "name": "9号線千代田線", "depth": 7 }],
    "coordinates": [139.83211, 35.77725]
  },
  {
    "station": "町屋",
    "lines": [{ "name": "9号線千代田線", "depth": -10.4 }],
    "coordinates": [139.77946, 35.74118]
  },
  {
    "station": "湯島",
    "lines": [{ "name": "9号線千代田線", "depth": -12.4 }],
    "coordinates": [139.77002, 35.70779]
  },
  {
    "station": "根津",
    "lines": [{ "name": "9号線千代田線", "depth": -10 }],
    "coordinates": [139.76517, 35.7179]
  },
  {
    "station": "綾瀬",
    "lines": [{ "name": "9号線千代田線", "depth": 7.1 }],
    "coordinates": [139.82614, 35.76241]
  },
  {
    "station": "二重橋前",
    "lines": [{ "name": "9号線千代田線", "depth": -15.3 }],
    "coordinates": [139.7621, 35.68145]
  },
  {
    "station": "乃木坂",
    "lines": [{ "name": "9号線千代田線", "depth": -19.3 }],
    "coordinates": [139.72701, 35.6673]
  },
  {
    "station": "赤坂",
    "lines": [{ "name": "9号線千代田線", "depth": -15 }],
    "coordinates": [139.73711, 35.67267]
  },
  {
    "station": "代々木公園",
    "lines": [{ "name": "9号線千代田線", "depth": -11.1 }],
    "coordinates": [139.68868, 35.66926]
  },
  {
    "station": "代々木上原",
    "lines": [{ "name": "9号線千代田線", "depth": 8.6 }],
    "coordinates": [139.67877, 35.66849]
  },
  {
    "station": "明治神宮前",
    "lines": [
      { "name": "9号線千代田線", "depth": -17.4 },
      { "name": "13号線副都心線", "depth": -28 }
    ],
    "coordinates": [139.70307, 35.66949]
  },
  {
    "station": "押上",
    "lines": [{ "name": "11号線半蔵門線", "depth": -21.6 }],
    "coordinates": [139.81415, 35.70668]
  },
  {
    "station": "錦糸町",
    "lines": [{ "name": "11号線半蔵門線", "depth": -21.8 }],
    "coordinates": [139.81487, 35.69861]
  },
  {
    "station": "神保町",
    "lines": [{ "name": "11号線半蔵門線", "depth": -22.1 }],
    "coordinates": [139.75691, 35.696]
  },
  {
    "station": "水天宮前",
    "lines": [{ "name": "11号線半蔵門線", "depth": -22 }],
    "coordinates": [139.78576, 35.68231]
  },
  {
    "station": "住吉",
    "lines": [{ "name": "11号線半蔵門線", "depth": -32.6 }],
    "coordinates": [139.81576, 35.6879]
  },
  {
    "station": "半蔵門",
    "lines": [{ "name": "11号線半蔵門線", "depth": -18.3 }],
    "coordinates": [139.74158, 35.68445]
  },
  {
    "station": "清澄白河",
    "lines": [{ "name": "11号線半蔵門線", "depth": -21.5 }],
    "coordinates": [139.80141, 35.6822]
  },
  {
    "station": "東新宿",
    "lines": [{ "name": "13号線副都心線", "depth": -29 }],
    "coordinates": [139.70823, 35.70187]
  },
  {
    "station": "北参道",
    "lines": [{ "name": "13号線副都心線", "depth": -16 }],
    "coordinates": [139.70473, 35.67947]
  },
  {
    "station": "西早稲田",
    "lines": [{ "name": "13号線副都心線", "depth": -30 }],
    "coordinates": [139.70933, 35.70892]
  },
  {
    "station": "雑司が谷",
    "lines": [{ "name": "13号線副都心線", "depth": -34 }],
    "coordinates": [139.71558, 35.72139]
  },
  {
    "station": "虎ノ門ヒルズ",
    "lines": [{ "name": "2号線日比谷線", "depth": -8 }],
    "coordinates": [139.748, 35.66785]
  },
  {
    "station": "一之江",
    "lines": [
      {
        "name": "10号線新宿線",
        "depth": -18.7
      }
    ],
    "coordinates": [
      139.8839,
      35.68608
    ]
  },
  {
    "station": "三田",
    "lines": [
      {
        "name": "6号線三田線",
        "depth": -23.8
      }
    ],
    "coordinates": [
      139.74897,
      35.64869
    ]
  },
  {
    "station": "三田",
    "lines": [
      {
        "name": "1号線浅草線",
        "depth": -12.5
      }
    ],
    "coordinates": [
      139.75015,
      35.64815
    ]
  },
  {
    "station": "上野御徒町",
    "lines": [
      {
        "name": "12号線大江戸線",
        "depth": -15.5
      }
    ],
    "coordinates": [
      139.77226,
      35.70804
    ]
  },
  {
    "station": "両国",
    "lines": [
      {
        "name": "12号線大江戸線",
        "depth": -15.2
      }
    ],
    "coordinates": [
      139.79737,
      35.69751
    ]
  },
  {
    "station": "中井",
    "lines": [
      {
        "name": "12号線大江戸線",
        "depth": -35.1
      }
    ],
    "coordinates": [
      139.686,
      35.71321
    ]
  },
  {
    "station": "中延",
    "lines": [
      {
        "name": "1号線浅草線",
        "depth": -11.0
      }
    ],
    "coordinates": [
      139.71344,
      35.60442
    ]
  },
  {
    "station": "中野坂上",
    "lines": [
      {
        "name": "12号線大江戸線",
        "depth": -33.4
      }
    ],
    "coordinates": [
      139.68293,
      35.69717
    ]
  },
  {
    "station": "九段下",
    "lines": [
      {
        "name": "10号線新宿線",
        "depth": -19.2
      }
    ],
    "coordinates": [
      139.75215,
      35.69569
    ]
  },
  {
    "station": "五反田",
    "lines": [
      {
        "name": "1号線浅草線",
        "depth": -12.1
      }
    ],
    "coordinates": [
      139.72357,
      35.6267
    ]
  },
  {
    "station": "人形町",
    "lines": [
      {
        "name": "1号線浅草線",
        "depth": -15.6
      }
    ],
    "coordinates": [
      139.78263,
      35.68662
    ]
  },
  {
    "station": "代々木",
    "lines": [
      {
        "name": "12号線大江戸線",
        "depth": -20.6
      }
    ],
    "coordinates": [
      139.70174,
      35.683
    ]
  },
  {
    "station": "住吉",
    "lines": [
      {
        "name": "10号線新宿線",
        "depth": -14.9
      }
    ],
    "coordinates": [
      139.81666,
      35.689
    ]
  },
  {
    "station": "光が丘",
    "lines": [
      {
        "name": "12号線大江戸線",
        "depth": -11.9
      }
    ],
    "coordinates": [
      139.62997,
      35.75848
    ]
  },
  {
    "station": "六本木",
    "lines": [
      {
        "name": "12号線大江戸線",
        "depth": -42.3
      }
    ],
    "coordinates": [
      139.73076,
      35.66448
    ]
  },
  {
    "station": "内幸町",
    "lines": [
      {
        "name": "6号線三田線",
        "depth": -21.3
      }
    ],
    "coordinates": [
      139.75567,
      35.66983
    ]
  },
  {
    "station": "勝どき",
    "lines": [
      {
        "name": "12号線大江戸線",
        "depth": -15.3
      }
    ],
    "coordinates": [
      139.77778,
      35.65938
    ]
  },
  {
    "station": "千石",
    "lines": [
      {
        "name": "6号線三田線",
        "depth": -13.3
      }
    ],
    "coordinates": [
      139.74409,
      35.72845
    ]
  },
  {
    "station": "国立競技場",
    "lines": [
      {
        "name": "12号線大江戸線",
        "depth": -28.4
      }
    ],
    "coordinates": [
      139.71583,
      35.67963
    ]
  },
  {
    "station": "大島",
    "lines": [
      {
        "name": "10号線新宿線",
        "depth": -14.0
      }
    ],
    "coordinates": [
      139.83522,
      35.68985
    ]
  },
  {
    "station": "大手町",
    "lines": [
      {
        "name": "6号線三田線",
        "depth": -12.9
      }
    ],
    "coordinates": [
      139.76236,
      35.68324
    ]
  },
  {
    "station": "大門",
    "lines": [
      {
        "name": "1号線浅草線",
        "depth": -7.9
      }
    ],
    "coordinates": [
      139.75477,
      35.65738
    ]
  },
  {
    "station": "大門",
    "lines": [
      {
        "name": "12号線大江戸線",
        "depth": -22.8
      }
    ],
    "coordinates": [
      139.75498,
      35.65674
    ]
  },
  {
    "station": "宝町",
    "lines": [
      {
        "name": "1号線浅草線",
        "depth": -13.6
      }
    ],
    "coordinates": [
      139.77242,
      35.67617
    ]
  },
  {
    "station": "小川町",
    "lines": [
      {
        "name": "10号線新宿線",
        "depth": -22.1
      }
    ],
    "coordinates": [
      139.76788,
      35.69561
    ]
  },
  {
    "station": "岩本町",
    "lines": [
      {
        "name": "10号線新宿線",
        "depth": -24.4
      }
    ],
    "coordinates": [
      139.77626,
      35.69553
    ]
  },
  {
    "station": "巣鴨",
    "lines": [
      {
        "name": "6号線三田線",
        "depth": -13.4
      }
    ],
    "coordinates": [
      139.73742,
      35.73426
    ]
  },
  {
    "station": "市ヶ谷",
    "lines": [
      {
        "name": "10号線新宿線",
        "depth": -17.5
      }
    ],
    "coordinates": [
      139.73828,
      35.69171
    ]
  },
  {
    "station": "御成門",
    "lines": [
      {
        "name": "6号線三田線",
        "depth": -19.1
      }
    ],
    "coordinates": [
      139.75183,
      35.66169
    ]
  },
  {
    "station": "志村三丁目",
    "lines": [
      {
        "name": "6号線三田線",
        "depth": 7.4
      }
    ],
    "coordinates": [
      139.68673,
      35.77767
    ]
  },
  {
    "station": "志村坂上",
    "lines": [
      {
        "name": "6号線三田線",
        "depth": -11.5
      }
    ],
    "coordinates": [
      139.6953,
      35.77578
    ]
  },
  {
    "station": "戸越",
    "lines": [
      {
        "name": "1号線浅草線",
        "depth": -11.0
      }
    ],
    "coordinates": [
      139.71611,
      35.61374
    ]
  },
  {
    "station": "押上",
    "lines": [
      {
        "name": "1号線浅草線",
        "depth": -7.0
      }
    ],
    "coordinates": [
      139.81158,
      35.70972
    ]
  },
  {
    "station": "新宿",
    "lines": [
      {
        "name": "10号線新宿線",
        "depth": -26.5
      }
    ],
    "coordinates": [
      139.69932,
      35.68871
    ]
  },
  {
    "station": "新宿",
    "lines": [
      {
        "name": "12号線大江戸線",
        "depth": -36.6
      }
    ],
    "coordinates": [
      139.69952,
      35.68716
    ]
  },
  {
    "station": "新宿三丁目",
    "lines": [
      {
        "name": "10号線新宿線",
        "depth": -19.1
      }
    ],
    "coordinates": [
      139.70749,
      35.69114
    ]
  },
  {
    "station": "新宿西口",
    "lines": [
      {
        "name": "12号線大江戸線",
        "depth": -21.9
      }
    ],
    "coordinates": [
      139.69901,
      35.69382
    ]
  },
  {
    "station": "新御徒町",
    "lines": [
      {
        "name": "12号線大江戸線",
        "depth": -15.5
      }
    ],
    "coordinates": [
      139.78272,
      35.70692
    ]
  },
  {
    "station": "新板橋",
    "lines": [
      {
        "name": "6号線三田線",
        "depth": -11.5
      }
    ],
    "coordinates": [
      139.71848,
      35.74893
    ]
  },
  {
    "station": "新橋",
    "lines": [
      {
        "name": "1号線浅草線",
        "depth": -13.8
      }
    ],
    "coordinates": [
      139.75852,
      35.66432
    ]
  },
  {
    "station": "新江古田",
    "lines": [
      {
        "name": "12号線大江戸線",
        "depth": -12.5
      }
    ],
    "coordinates": [
      139.67133,
      35.73221
    ]
  },
  {
    "station": "新高島平",
    "lines": [
      {
        "name": "6号線三田線",
        "depth": 8.5
      }
    ],
    "coordinates": [
      139.65529,
      35.79004
    ]
  },
  {
    "station": "日本橋",
    "lines": [
      {
        "name": "1号線浅草線",
        "depth": -12.9
      }
    ],
    "coordinates": [
      139.77607,
      35.68209
    ]
  },
  {
    "station": "日比谷",
    "lines": [
      {
        "name": "6号線三田線",
        "depth": -13.3
      }
    ],
    "coordinates": [
      139.75989,
      35.67589
    ]
  },
  {
    "station": "春日",
    "lines": [
      {
        "name": "12号線大江戸線",
        "depth": -22.3
      }
    ],
    "coordinates": [
      139.75136,
      35.7085
    ]
  },
  {
    "station": "春日",
    "lines": [
      {
        "name": "6号線三田線",
        "depth": -13.4
      }
    ],
    "coordinates": [
      139.75347,
      35.70913
    ]
  },
  {
    "station": "曙橋",
    "lines": [
      {
        "name": "10号線新宿線",
        "depth": -17.4
      }
    ],
    "coordinates": [
      139.72357,
      35.6923
    ]
  },
  {
    "station": "月島",
    "lines": [
      {
        "name": "12号線大江戸線",
        "depth": -15.0
      }
    ],
    "coordinates": [
      139.78479,
      35.66441
    ]
  },
  {
    "station": "本八幡",
    "lines": [
      {
        "name": "10号線新宿線",
        "depth": -21.0
      }
    ],
    "coordinates": [
      139.92749,
      35.72407
    ]
  },
  {
    "station": "本所吾妻橋",
    "lines": [
      {
        "name": "1号線浅草線",
        "depth": -9.6
      }
    ],
    "coordinates": [
      139.80368,
      35.70854
    ]
  },
  {
    "station": "本蓮沼",
    "lines": [
      {
        "name": "6号線三田線",
        "depth": -10.6
      }
    ],
    "coordinates": [
      139.70253,
      35.76837
    ]
  },
  {
    "station": "本郷三丁目",
    "lines": [
      {
        "name": "12号線大江戸線",
        "depth": -23.2
      }
    ],
    "coordinates": [
      139.7598,
      35.70754
    ]
  },
  {
    "station": "東中野",
    "lines": [
      {
        "name": "12号線大江戸線",
        "depth": -38.8
      }
    ],
    "coordinates": [
      139.68296,
      35.70672
    ]
  },
  {
    "station": "東大島",
    "lines": [
      {
        "name": "10号線新宿線",
        "depth": 10.1
      }
    ],
    "coordinates": [
      139.84892,
      35.68926
    ]
  },
  {
    "station": "東新宿",
    "lines": [
      {
        "name": "12号線大江戸線",
        "depth": -18.3
      }
    ],
    "coordinates": [
      139.70852,
      35.69779
    ]
  },
  {
    "station": "東日本橋",
    "lines": [
      {
        "name": "1号線浅草線",
        "depth": -8.6
      }
    ],
    "coordinates": [
      139.78497,
      35.69304
    ]
  },
  {
    "station": "東銀座",
    "lines": [
      {
        "name": "1号線浅草線",
        "depth": -9.4
      }
    ],
    "coordinates": [
      139.76645,
      35.66901
    ]
  },
  {
    "station": "板橋区役所前",
    "lines": [
      {
        "name": "6号線三田線",
        "depth": -10.8
      }
    ],
    "coordinates": [
      139.70946,
      35.75179
    ]
  },
  {
    "station": "板橋本町",
    "lines": [
      {
        "name": "6号線三田線",
        "depth": -10.4
      }
    ],
    "coordinates": [
      139.70575,
      35.76072
    ]
  },
  {
    "station": "森下",
    "lines": [
      {
        "name": "12号線大江戸線",
        "depth": -22.5
      }
    ],
    "coordinates": [
      139.79826,
      35.68726
    ]
  },
  {
    "station": "森下",
    "lines": [
      {
        "name": "10号線新宿線",
        "depth": -17.7
      }
    ],
    "coordinates": [
      139.79919,
      35.68807
    ]
  },
  {
    "station": "水道橋",
    "lines": [
      {
        "name": "6号線三田線",
        "depth": -15.7
      }
    ],
    "coordinates": [
      139.75541,
      35.70269
    ]
  },
  {
    "station": "汐留",
    "lines": [
      {
        "name": "12号線大江戸線",
        "depth": -17.8
      }
    ],
    "coordinates": [
      139.76245,
      35.66625
    ]
  },
  {
    "station": "泉岳寺",
    "lines": [
      {
        "name": "1号線浅草線",
        "depth": -11.4
      }
    ],
    "coordinates": [
      139.73938,
      35.63746
    ]
  },
  {
    "station": "浅草",
    "lines": [
      {
        "name": "1号線浅草線",
        "depth": -16.6
      }
    ],
    "coordinates": [
      139.79725,
      35.70949
    ]
  },
  {
    "station": "浅草橋",
    "lines": [
      {
        "name": "1号線浅草線",
        "depth": -11.6
      }
    ],
    "coordinates": [
      139.78598,
      35.69687
    ]
  },
  {
    "station": "浜町",
    "lines": [
      {
        "name": "10号線新宿線",
        "depth": -19.9
      }
    ],
    "coordinates": [
      139.78898,
      35.68839
    ]
  },
  {
    "station": "清澄白河",
    "lines": [
      {
        "name": "12号線大江戸線",
        "depth": -14.7
      }
    ],
    "coordinates": [
      139.79875,
      35.68222
    ]
  },
  {
    "station": "牛込柳町",
    "lines": [
      {
        "name": "12号線大江戸線",
        "depth": -21.2
      }
    ],
    "coordinates": [
      139.72599,
      35.6994
    ]
  },
  {
    "station": "牛込神楽坂",
    "lines": [
      {
        "name": "12号線大江戸線",
        "depth": -20.7
      }
    ],
    "coordinates": [
      139.73677,
      35.70121
    ]
  },
  {
    "station": "瑞江",
    "lines": [
      {
        "name": "10号線新宿線",
        "depth": -12.3
      }
    ],
    "coordinates": [
      139.89831,
      35.6941
    ]
  },
  {
    "station": "白山",
    "lines": [
      {
        "name": "6号線三田線",
        "depth": -17.9
      }
    ],
    "coordinates": [
      139.75249,
      35.72204
    ]
  },
  {
    "station": "白金台",
    "lines": [
      {
        "name": "6号線三田線",
        "depth": -27.2
      }
    ],
    "coordinates": [
      139.72671,
      35.63814
    ]
  },
  {
    "station": "白金高輪",
    "lines": [
      {
        "name": "6号線三田線",
        "depth": -28.7
      }
    ],
    "coordinates": [
      139.73469,
      35.64385
    ]
  },
  {
    "station": "目黒",
    "lines": [
      {
        "name": "6号線三田線",
        "depth": -18.7
      }
    ],
    "coordinates": [
      139.71542,
      35.6332
    ]
  },
  {
    "station": "神保町",
    "lines": [
      {
        "name": "10号線新宿線",
        "depth": -9.2
      }
    ],
    "coordinates": [
      139.75691,
      35.696
    ]
  },
  {
    "station": "神保町",
    "lines": [
      {
        "name": "6号線三田線",
        "depth": -16.0
      }
    ],
    "coordinates": [
      139.75857,
      35.69411
    ]
  },
  {
    "station": "築地市場",
    "lines": [
      {
        "name": "12号線大江戸線",
        "depth": -15.7
      }
    ],
    "coordinates": [
      139.76718,
      35.66462
    ]
  },
  {
    "station": "篠崎",
    "lines": [
      {
        "name": "10号線新宿線",
        "depth": -13.2
      }
    ],
    "coordinates": [
      139.90459,
      35.70681
    ]
  },
  {
    "station": "練馬",
    "lines": [
      {
        "name": "12号線大江戸線",
        "depth": -15.5
      }
    ],
    "coordinates": [
      139.65551,
      35.73748
    ]
  },
  {
    "station": "練馬春日町",
    "lines": [
      {
        "name": "12号線大江戸線",
        "depth": -18.7
      }
    ],
    "coordinates": [
      139.64161,
      35.75108
    ]
  },
  {
    "station": "船堀",
    "lines": [
      {
        "name": "10号線新宿線",
        "depth": 6.9
      }
    ],
    "coordinates": [
      139.86487,
      35.68382
    ]
  },
  {
    "station": "芝公園",
    "lines": [
      {
        "name": "6号線三田線",
        "depth": -20.6
      }
    ],
    "coordinates": [
      139.74983,
      35.65416
    ]
  },
  {
    "station": "若松河田",
    "lines": [
      {
        "name": "12号線大江戸線",
        "depth": -19.4
      }
    ],
    "coordinates": [
      139.71894,
      35.6994
    ]
  },
  {
    "station": "菊川",
    "lines": [
      {
        "name": "10号線新宿線",
        "depth": -17.4
      }
    ],
    "coordinates": [
      139.80708,
      35.68848
    ]
  },
  {
    "station": "落合南長崎",
    "lines": [
      {
        "name": "12号線大江戸線",
        "depth": -17.0
      }
    ],
    "coordinates": [
      139.68387,
      35.72282
    ]
  },
  {
    "station": "蓮根",
    "lines": [
      {
        "name": "6号線三田線",
        "depth": 7.8
      }
    ],
    "coordinates": [
      139.67898,
      35.78342
    ]
  },
  {
    "station": "蔵前",
    "lines": [
      {
        "name": "1号線浅草線",
        "depth": -7.5
      }
    ],
    "coordinates": [
      139.7903,
      35.70268
    ]
  },
  {
    "station": "蔵前",
    "lines": [
      {
        "name": "12号線大江戸線",
        "depth": -17.9
      }
    ],
    "coordinates": [
      139.793,
      35.70522
    ]
  },
  {
    "station": "西台",
    "lines": [
      {
        "name": "6号線三田線",
        "depth": 8.7
      }
    ],
    "coordinates": [
      139.67367,
      35.78699
    ]
  },
  {
    "station": "西大島",
    "lines": [
      {
        "name": "10号線新宿線",
        "depth": -18.3
      }
    ],
    "coordinates": [
      139.82728,
      35.68933
    ]
  },
  {
    "station": "西巣鴨",
    "lines": [
      {
        "name": "6号線三田線",
        "depth": -13.9
      }
    ],
    "coordinates": [
      139.72814,
      35.74404
    ]
  },
  {
    "station": "西新宿五丁目",
    "lines": [
      {
        "name": "12号線大江戸線",
        "depth": -23.3
      }
    ],
    "coordinates": [
      139.68535,
      35.6902
    ]
  },
  {
    "station": "西馬込",
    "lines": [
      {
        "name": "1号線浅草線",
        "depth": -9.0
      }
    ],
    "coordinates": [
      139.70585,
      35.58668
    ]
  },
  {
    "station": "西高島平",
    "lines": [
      {
        "name": "6号線三田線",
        "depth": 7.7
      }
    ],
    "coordinates": [
      139.64682,
      35.79169
    ]
  },
  {
    "station": "豊島園",
    "lines": [
      {
        "name": "12号線大江戸線",
        "depth": -19.5
      }
    ],
    "coordinates": [
      139.64918,
      35.74074
    ]
  },
  {
    "station": "赤羽橋",
    "lines": [
      {
        "name": "12号線大江戸線",
        "depth": -21.0
      }
    ],
    "coordinates": [
      139.74342,
      35.65505
    ]
  },
  {
    "station": "都庁前",
    "lines": [
      {
        "name": "12号線大江戸線",
        "depth": -18.5
      }
    ],
    "coordinates": [
      139.69345,
      35.69073
    ]
  },
  {
    "station": "門前仲町",
    "lines": [
      {
        "name": "12号線大江戸線",
        "depth": -18.5
      }
    ],
    "coordinates": [
      139.79542,
      35.67324
    ]
  },
  {
    "station": "青山一丁目",
    "lines": [
      {
        "name": "12号線大江戸線",
        "depth": -27.0
      }
    ],
    "coordinates": [
      139.72434,
      35.67216
    ]
  },
  {
    "station": "飯田橋",
    "lines": [
      {
        "name": "12号線大江戸線",
        "depth": -32.1
      }
    ],
    "coordinates": [
      139.74646,
      35.70335
    ]
  },
  {
    "station": "馬喰横山",
    "lines": [
      {
        "name": "10号線新宿線",
        "depth": -17.3
      }
    ],
    "coordinates": [
      139.78369,
      35.69134
    ]
  },
  {
    "station": "馬込",
    "lines": [
      {
        "name": "1号線浅草線",
        "depth": -12.7
      }
    ],
    "coordinates": [
      139.71171,
      35.59575
    ]
  },
  {
    "station": "高島平",
    "lines": [
      {
        "name": "6号線三田線",
        "depth": 10.1
      }
    ],
    "coordinates": [
      139.66224,
      35.78875
    ]
  },
  {
    "station": "高輪台",
    "lines": [
      {
        "name": "1号線浅草線",
        "depth": -18.2
      }
    ],
    "coordinates": [
      139.72975,
      35.63122
    ]
  },
  {
    "station": "麻布十番",
    "lines": [
      {
        "name": "12号線大江戸線",
        "depth": -32.5
      }
    ],
    "coordinates": [
      139.73539,
      35.65665
    ]
  }
]